{
"type": "FeatureCollection",
"crs": { "type": "name", "properties": { "name": "urn:ogc:def:crs:OGC:1.3:CRS84" } },
"features": [
{ "type": "Feature", "properties": { "Name": "People's Center", "description": null, "timestamp": null, "begin": null, "end": null, "altitudeMode": null, "tessellate": -1, "extrude": 0, "visibility": -1, "drawOrder": null, "icon": null }, "geometry": { "type": "Point", "coordinates": [ -122.4509182, 47.2461953, 0.0 ] } },
{ "type": "Feature", "properties": { "Name": "Portland Avenue Community Center", "description": null, "timestamp": null, "begin": null, "end": null, "altitudeMode": null, "tessellate": -1, "extrude": 0, "visibility": -1, "drawOrder": null, "icon": null }, "geometry": { "type": "Point", "coordinates": [ -122.407485, 47.229856, 0.0 ] } },
{ "type": "Feature", "properties": { "Name": "STAR Center", "description": null, "timestamp": null, "begin": null, "end": null, "altitudeMode": null, "tessellate": -1, "extrude": 0, "visibility": -1, "drawOrder": null, "icon": null }, "geometry": { "type": "Point", "coordinates": [ -122.488693, 47.198268, 0.0 ] } },
{ "type": "Feature", "properties": { "Name": "Peace Community Center", "description": null, "timestamp": null, "begin": null, "end": null, "altitudeMode": null, "tessellate": -1, "extrude": 0, "visibility": -1, "drawOrder": null, "icon": null }, "geometry": { "type": "Point", "coordinates": [ -122.4554556, 47.2407895, 0.0 ] } },
{ "type": "Feature", "properties": { "Name": "South East Tacoma Community Center", "description": null, "timestamp": null, "begin": null, "end": null, "altitudeMode": null, "tessellate": -1, "extrude": 0, "visibility": -1, "drawOrder": null, "icon": null }, "geometry": { "type": "Point", "coordinates": [ -122.4072104, 47.1669777, 0.0 ] } },
{ "type": "Feature", "properties": { "Name": "South Park Community Center", "description": null, "timestamp": null, "begin": null, "end": null, "altitudeMode": null, "tessellate": -1, "extrude": 0, "visibility": -1, "drawOrder": null, "icon": null }, "geometry": { "type": "Point", "coordinates": [ -122.482626, 47.212099, 0.0 ] } },
{ "type": "Feature", "properties": { "Name": "Tacoma Center YMCA", "description": null, "timestamp": null, "begin": null, "end": null, "altitudeMode": null, "tessellate": -1, "extrude": 0, "visibility": -1, "drawOrder": null, "icon": null }, "geometry": { "type": "Point", "coordinates": [ -122.4413532, 47.2514677, 0.0 ] } },
{ "type": "Feature", "properties": { "Name": "Eastside Community Center", "description": null, "timestamp": null, "begin": null, "end": null, "altitudeMode": null, "tessellate": -1, "extrude": 0, "visibility": -1, "drawOrder": null, "icon": null }, "geometry": { "type": "Point", "coordinates": [ -122.4065328, 47.2062702, 0.0 ] } },
{ "type": "Feature", "properties": { "Name": "Center at Norpoint", "description": null, "timestamp": null, "begin": null, "end": null, "altitudeMode": null, "tessellate": -1, "extrude": 0, "visibility": -1, "drawOrder": null, "icon": null }, "geometry": { "type": "Point", "coordinates": [ -122.404943, 47.2996564, 0.0 ] } },
{ "type": "Feature", "properties": { "Name": "Tacoma Community House", "description": null, "timestamp": null, "begin": null, "end": null, "altitudeMode": null, "tessellate": -1, "extrude": 0, "visibility": -1, "drawOrder": null, "icon": null }, "geometry": { "type": "Point", "coordinates": [ -122.4529952, 47.2490579, 0.0 ] } },
{ "type": "Feature", "properties": { "Name": "YMCA of Pierce and Kitsap Counties Association Office", "description": null, "timestamp": null, "begin": null, "end": null, "altitudeMode": null, "tessellate": -1, "extrude": 0, "visibility": -1, "drawOrder": null, "icon": null }, "geometry": { "type": "Point", "coordinates": [ -122.5006699, 47.2432842, 0.0 ] } },
{ "type": "Feature", "properties": { "Name": "YMCA of Tacoma and Pierce County", "description": null, "timestamp": null, "begin": null, "end": null, "altitudeMode": null, "tessellate": -1, "extrude": 0, "visibility": -1, "drawOrder": null, "icon": null }, "geometry": { "type": "Point", "coordinates": [ -122.5284916, 47.2464424, 0.0 ] } },
{ "type": "Feature", "properties": { "Name": "Morgan Family YMCA", "description": null, "timestamp": null, "begin": null, "end": null, "altitudeMode": null, "tessellate": -1, "extrude": 0, "visibility": -1, "drawOrder": null, "icon": null }, "geometry": { "type": "Point", "coordinates": [ -122.5168293, 47.2520997, 0.0 ] } },
{ "type": "Feature", "properties": { "Name": "University Y Student Center", "description": null, "timestamp": null, "begin": null, "end": null, "altitudeMode": null, "tessellate": -1, "extrude": 0, "visibility": -1, "drawOrder": null, "icon": null }, "geometry": { "type": "Point", "coordinates": [ -122.4404055, 47.246375, 0.0 ] } },
{ "type": "Feature", "properties": { "Name": "Anytime Fitness", "description": null, "timestamp": null, "begin": null, "end": null, "altitudeMode": null, "tessellate": -1, "extrude": 0, "visibility": -1, "drawOrder": null, "icon": null }, "geometry": { "type": "Point", "coordinates": [ -122.514069, 47.27188, 0.0 ] } },
{ "type": "Feature", "properties": { "Name": "Fit Republic", "description": null, "timestamp": null, "begin": null, "end": null, "altitudeMode": null, "tessellate": -1, "extrude": 0, "visibility": -1, "drawOrder": null, "icon": null }, "geometry": { "type": "Point", "coordinates": [ -122.4697072, 47.2245084, 0.0 ] } },
{ "type": "Feature", "properties": { "Name": "24 Hour Fitness", "description": null, "timestamp": null, "begin": null, "end": null, "altitudeMode": null, "tessellate": -1, "extrude": 0, "visibility": -1, "drawOrder": null, "icon": null }, "geometry": { "type": "Point", "coordinates": [ -122.4321631, 47.2243053, 0.0 ] } },
{ "type": "Feature", "properties": { "Name": "Planet Fitness", "description": null, "timestamp": null, "begin": null, "end": null, "altitudeMode": null, "tessellate": -1, "extrude": 0, "visibility": -1, "drawOrder": null, "icon": null }, "geometry": { "type": "Point", "coordinates": [ -122.4200163, 47.1921272, 0.0 ] } },
{ "type": "Feature", "properties": { "Name": "Tacoma Strength", "description": null, "timestamp": null, "begin": null, "end": null, "altitudeMode": null, "tessellate": -1, "extrude": 0, "visibility": -1, "drawOrder": null, "icon": null }, "geometry": { "type": "Point", "coordinates": [ -122.4393055, 47.2389845, 0.0 ] } },
{ "type": "Feature", "properties": { "Name": "Armor Athletics - CrossFit South Tacoma", "description": null, "timestamp": null, "begin": null, "end": null, "altitudeMode": null, "tessellate": -1, "extrude": 0, "visibility": -1, "drawOrder": null, "icon": null }, "geometry": { "type": "Point", "coordinates": [ -122.4839633, 47.2095459, 0.0 ] } },
{ "type": "Feature", "properties": { "Name": "Town Athletics (Tacoma CrossFit)", "description": null, "timestamp": null, "begin": null, "end": null, "altitudeMode": null, "tessellate": -1, "extrude": 0, "visibility": -1, "drawOrder": null, "icon": null }, "geometry": { "type": "Point", "coordinates": [ -122.4899051, 47.2551123, 0.0 ] } },
{ "type": "Feature", "properties": { "Name": "NW Fitness", "description": null, "timestamp": null, "begin": null, "end": null, "altitudeMode": null, "tessellate": -1, "extrude": 0, "visibility": -1, "drawOrder": null, "icon": null }, "geometry": { "type": "Point", "coordinates": [ -122.5035077, 47.2980085, 0.0 ] } },
{ "type": "Feature", "properties": { "Name": "Planet Fitness", "description": null, "timestamp": null, "begin": null, "end": null, "altitudeMode": null, "tessellate": -1, "extrude": 0, "visibility": -1, "drawOrder": null, "icon": null }, "geometry": { "type": "Point", "coordinates": [ -122.4351229, 47.1678463, 0.0 ] } },
{ "type": "Feature", "properties": { "Name": "LA Fitness", "description": null, "timestamp": null, "begin": null, "end": null, "altitudeMode": null, "tessellate": -1, "extrude": 0, "visibility": -1, "drawOrder": null, "icon": null }, "geometry": { "type": "Point", "coordinates": [ -122.4602972, 47.1877911, 0.0 ] } },
{ "type": "Feature", "properties": { "Name": "LA Fitness", "description": null, "timestamp": null, "begin": null, "end": null, "altitudeMode": null, "tessellate": -1, "extrude": 0, "visibility": -1, "drawOrder": null, "icon": null }, "geometry": { "type": "Point", "coordinates": [ -122.51671, 47.256342, 0.0 ] } }
]
}
